stop_id,stop_code,stop_name,stop_desc,stop_lat,stop_lon,zone_id,stop_url,location_type,parent_station,platform_code
S8000016,,Backnang,,48.942676,9.425989,,,1,,
8000016_5       ,,Backnang,,48.942676,9.425989,,,0,S8000016,5       
8000016_4       ,,Backnang,,48.942676,9.425989,,,0,S8000016,4       
8000016_1       ,,Backnang,,48.942676,9.425989,,,0,S8000016,1       
8000016_3       ,,Backnang,,48.942676,9.425989,,,0,S8000016,3       
8000016,,Backnang,,48.942676,9.425989,,,0,S8000016,
S8000038,,Bietigheim-Bissingen,,48.947933,9.137557,,,1,,
8000038_6       ,,Bietigheim-Bissingen,,48.947933,9.137557,,,0,S8000038,6       
8000038_5       ,,Bietigheim-Bissingen,,48.947933,9.137557,,,0,S8000038,5       
8000038,,Bietigheim-Bissingen,,48.947933,9.137557,,,0,S8000038,
S8000096,,Stuttgart Hbf,,48.784084,9.181635,,,1,,
8000096_5       ,,Stuttgart Hbf,,48.784084,9.181635,,,0,S8000096,5       
8000096_6       ,,Stuttgart Hbf,,48.784084,9.181635,,,0,S8000096,6       
8000096_4       ,,Stuttgart Hbf,,48.784084,9.181635,,,0,S8000096,4       
8000096_3       ,,Stuttgart Hbf,,48.784084,9.181635,,,0,S8000096,3       
8000096_2       ,,Stuttgart Hbf,,48.784084,9.181635,,,0,S8000096,2       
8000096,,Stuttgart Hbf,,48.784084,9.181635,,,0,S8000096,
S8000180,,Waiblingen,,48.826124,9.299882,,,1,,
8000180_3       ,,Waiblingen,,48.826124,9.299882,,,0,S8000180,3       
8000180_1       ,,Waiblingen,,48.826124,9.299882,,,0,S8000180,1       
8000180_7       ,,Waiblingen,,48.826124,9.299882,,,0,S8000180,7       
8000180_5       ,,Waiblingen,,48.826124,9.299882,,,0,S8000180,5       
8000180,,Waiblingen,,48.826124,9.299882,,,0,S8000180,
S8000235,,Ludwigsburg,,48.891862,9.185420,,,1,,
8000235_2       ,,Ludwigsburg,,48.891862,9.185420,,,0,S8000235,2       
8000235_3       ,,Ludwigsburg,,48.891862,9.185420,,,0,S8000235,3       
8000235,,Ludwigsburg,,48.891862,9.185420,,,0,S8000235,
S8000302,,Plochingen,,48.713080,9.410810,,,1,,
8000302_9       ,,Plochingen,,48.713080,9.410810,,,0,S8000302,9       
8000302_10      ,,Plochingen,,48.713080,9.410810,,,0,S8000302,10      
8000302_7       ,,Plochingen,,48.713080,9.410810,,,0,S8000302,7       
8000302,,Plochingen,,48.713080,9.410810,,,0,S8000302,
S8000313,,Renningen,,48.775121,8.932350,,,1,,
8000313_3       ,,Renningen,,48.775121,8.932350,,,0,S8000313,3       
8000313_2       ,,Renningen,,48.775121,8.932350,,,0,S8000313,2       
8000313,,Renningen,,48.775121,8.932350,,,0,S8000313,
S8000508,,Altbach,,48.720393,9.382384,,,1,,
8000508_2       ,,Altbach,,48.720393,9.382384,,,0,S8000508,2       
8000508_4       ,,Altbach,,48.720393,9.382384,,,0,S8000508,4       
8000508_3       ,,Altbach,,48.720393,9.382384,,,0,S8000508,3       
8000508,,Altbach,,48.720393,9.382384,,,0,S8000508,
S8000630,,Asperg,,48.907359,9.147797,,,1,,
8000630_4       ,,Asperg,,48.907359,9.147797,,,0,S8000630,4       
8000630_3       ,,Asperg,,48.907359,9.147797,,,0,S8000630,3       
8000630,,Asperg,,48.907359,9.147797,,,0,S8000630,
S8000873,,Benningen(Neckar),,48.943614,9.244504,,,1,,
8000873_1       ,,Benningen(Neckar),,48.943614,9.244504,,,0,S8000873,1       
8000873_2       ,,Benningen(Neckar),,48.943614,9.244504,,,0,S8000873,2       
8000873,,Benningen(Neckar),,48.943614,9.244504,,,0,S8000873,
S8000934,,Beutelsbach,,48.810293,9.386029,,,1,,
8000934_1       ,,Beutelsbach,,48.810293,9.386029,,,0,S8000934,1       
8000934_2       ,,Beutelsbach,,48.810293,9.386029,,,0,S8000934,2       
8000934,,Beutelsbach,,48.810293,9.386029,,,0,S8000934,
S8001055,,Böblingen,,48.687758,9.004128,,,1,,
8001055_3       ,,Böblingen,,48.687758,9.004128,,,0,S8001055,3       
8001055_4       ,,Böblingen,,48.687758,9.004128,,,0,S8001055,4       
8001055_5       ,,Böblingen,,48.687758,9.004128,,,0,S8001055,5       
8001055,,Böblingen,,48.687758,9.004128,,,0,S8001055,
S8001296,,Burgstall(Murr),,48.928647,9.369932,,,1,,
8001296_1       ,,Burgstall(Murr),,48.928647,9.369932,,,0,S8001296,1       
8001296,,Burgstall(Murr),,48.928647,9.369932,,,0,S8001296,
S8001476,,Ditzingen,,48.823611,9.067050,,,1,,
8001476_2       ,,Ditzingen,,48.823611,9.067050,,,0,S8001476,2       
8001476_3       ,,Ditzingen,,48.823611,9.067050,,,0,S8001476,3       
8001476,,Ditzingen,,48.823611,9.067050,,,0,S8001476,
S8001650,,Echterdingen,,48.692152,9.169164,,,1,,
8001650_2       ,,Echterdingen,,48.692152,9.169164,,,0,S8001650,2       
8001650_1       ,,Echterdingen,,48.692152,9.169164,,,0,S8001650,1       
8001650,,Echterdingen,,48.692152,9.169164,,,0,S8001650,
S8001689,,Ehningen(b Böblingen),,48.662682,8.944260,,,1,,
8001689_1       ,,Ehningen(b Böblingen),,48.662682,8.944260,,,0,S8001689,1       
8001689_2       ,,Ehningen(b Böblingen),,48.662682,8.944260,,,0,S8001689,2       
8001689,,Ehningen(b Böblingen),,48.662682,8.944260,,,0,S8001689,
S8001785,,Endersbach,,48.813153,9.370228,,,1,,
8001785_2       ,,Endersbach,,48.813153,9.370228,,,0,S8001785,2       
8001785_3       ,,Endersbach,,48.813153,9.370228,,,0,S8001785,3       
8001785_1       ,,Endersbach,,48.813153,9.370228,,,0,S8001785,1       
8001785,,Endersbach,,48.813153,9.370228,,,0,S8001785,
S8001827,,Erdmannhausen,,48.948229,9.299405,,,1,,
8001827_1       ,,Erdmannhausen,,48.948229,9.299405,,,0,S8001827,1       
8001827,,Erdmannhausen,,48.948229,9.299405,,,0,S8001827,
S8001920,,Esslingen(Neckar),,48.738810,9.300080,,,1,,
8001920_8       ,,Esslingen(Neckar),,48.738810,9.300080,,,0,S8001920,8       
8001920_7       ,,Esslingen(Neckar),,48.738810,9.300080,,,0,S8001920,7       
8001920_6       ,,Esslingen(Neckar),,48.738810,9.300080,,,0,S8001920,6       
8001920,,Esslingen(Neckar),,48.738810,9.300080,,,0,S8001920,
S8001921,,Esslingen-Mettingen,,48.747083,9.275830,,,1,,
8001921_4       ,,Esslingen-Mettingen,,48.747083,9.275830,,,0,S8001921,4       
8001921_3       ,,Esslingen-Mettingen,,48.747083,9.275830,,,0,S8001921,3       
8001921,,Esslingen-Mettingen,,48.747083,9.275830,,,0,S8001921,
S8001967,,Favoritepark,,48.909209,9.180233,,,1,,
8001967_1       ,,Favoritepark,,48.909209,9.180233,,,0,S8001967,1       
8001967_2       ,,Favoritepark,,48.909209,9.180233,,,0,S8001967,2       
8001967,,Favoritepark,,48.909209,9.180233,,,0,S8001967,
S8001974,,Fellbach,,48.820049,9.269978,,,1,,
8001974_1       ,,Fellbach,,48.820049,9.269978,,,0,S8001974,1       
8001974_4       ,,Fellbach,,48.820049,9.269978,,,0,S8001974,4       
8001974,,Fellbach,,48.820049,9.269978,,,0,S8001974,
S8001984,,Filderstadt,,48.676493,9.217709,,,1,,
8001984_1       ,,Filderstadt,,48.676493,9.217709,,,0,S8001984,1       
8001984_2       ,,Filderstadt,,48.676493,9.217709,,,0,S8001984,2       
8001984,,Filderstadt,,48.676493,9.217709,,,0,S8001984,
S8002065,,Freiberg(Neckar),,48.930107,9.197796,,,1,,
8002065_3       ,,Freiberg(Neckar),,48.930107,9.197796,,,0,S8002065,3       
8002065_2       ,,Freiberg(Neckar),,48.930107,9.197796,,,0,S8002065,2       
8002065,,Freiberg(Neckar),,48.930107,9.197796,,,0,S8002065,
S8002165,,Gärtringen,,48.641122,8.909113,,,1,,
8002165_2       ,,Gärtringen,,48.641122,8.909113,,,0,S8002165,2       
8002165_1       ,,Gärtringen,,48.641122,8.909113,,,0,S8002165,1       
8002165,,Gärtringen,,48.641122,8.909113,,,0,S8002165,
S8002240,,Geradstetten,,48.805203,9.439753,,,1,,
8002240_2       ,,Geradstetten,,48.805203,9.439753,,,0,S8002240,2       
8002240_1       ,,Geradstetten,,48.805203,9.439753,,,0,S8002240,1       
8002240,,Geradstetten,,48.805203,9.439753,,,0,S8002240,
S8002448,,Grunbach,,48.810360,9.420029,,,1,,
8002448_3       ,,Grunbach,,48.810360,9.420029,,,0,S8002448,3       
8002448_2       ,,Grunbach,,48.810360,9.420029,,,0,S8002448,2       
8002448_1       ,,Grunbach,,48.810360,9.420029,,,0,S8002448,1       
8002448,,Grunbach,,48.810360,9.420029,,,0,S8002448,
S8002785,,Herrenberg,,48.593991,8.862662,,,1,,
8002785_2       ,,Herrenberg,,48.593991,8.862662,,,0,S8002785,2       
8002785_3       ,,Herrenberg,,48.593991,8.862662,,,0,S8002785,3       
8002785_1       ,,Herrenberg,,48.593991,8.862662,,,0,S8002785,1       
8002785,,Herrenberg,,48.593991,8.862662,,,0,S8002785,
S8002892,,Höfingen,,48.814986,9.025315,,,1,,
8002892_2       ,,Höfingen,,48.814986,9.025315,,,0,S8002892,2       
8002892_1       ,,Höfingen,,48.814986,9.025315,,,0,S8002892,1       
8002892,,Höfingen,,48.814986,9.025315,,,0,S8002892,
S8003022,,Hulb,,48.679267,8.982644,,,1,,
8003022_2       ,,Hulb,,48.679267,8.982644,,,0,S8003022,2       
8003022_1       ,,Hulb,,48.679267,8.982644,,,0,S8003022,1       
8003022,,Hulb,,48.679267,8.982644,,,0,S8003022,
S8003266,,Kirchberg(Murr),,48.939161,9.329056,,,1,,
8003266_1       ,,Kirchberg(Murr),,48.939161,9.329056,,,0,S8003266,1       
8003266_2       ,,Kirchberg(Murr),,48.939161,9.329056,,,0,S8003266,2       
8003266,,Kirchberg(Murr),,48.939161,9.329056,,,0,S8003266,
S8003280,,Kirchheim(Teck),,48.644258,9.443927,,,1,,
8003280_2       ,,Kirchheim(Teck),,48.644258,9.443927,,,0,S8003280,2       
8003280,,Kirchheim(Teck),,48.644258,9.443927,,,0,S8003280,
S8003282,,Kirchheim(Teck)-Ötlingen,,48.657764,9.416291,,,1,,
8003282_1       ,,Kirchheim(Teck)-Ötlingen,,48.657764,9.416291,,,0,S8003282,1       
8003282,,Kirchheim(Teck)-Ötlingen,,48.657764,9.416291,,,0,S8003282,
S8003409,,Korntal,,48.826416,9.121168,,,1,,
8003409_1       ,,Korntal,,48.826416,9.121168,,,0,S8003409,1       
8003409_3       ,,Korntal,,48.826416,9.121168,,,0,S8003409,3       
8003409_2       ,,Korntal,,48.826416,9.121168,,,0,S8003409,2       
8003409,,Korntal,,48.826416,9.121168,,,0,S8003409,
S8003411,,Kornwestheim Pbf,,48.862219,9.179964,,,1,,
8003411_4       ,,Kornwestheim Pbf,,48.862219,9.179964,,,0,S8003411,4       
8003411_3       ,,Kornwestheim Pbf,,48.862219,9.179964,,,0,S8003411,3       
8003411_5       ,,Kornwestheim Pbf,,48.862219,9.179964,,,0,S8003411,5       
8003411,,Kornwestheim Pbf,,48.862219,9.179964,,,0,S8003411,
S8003622,,Leinfelden,,48.696506,9.142866,,,1,,
8003622_2       ,,Leinfelden,,48.696506,9.142866,,,0,S8003622,2       
8003622_1       ,,Leinfelden,,48.696506,9.142866,,,0,S8003622,1       
8003622,,Leinfelden,,48.696506,9.142866,,,0,S8003622,
S8003652,,Leonberg,,48.799646,9.003853,,,1,,
8003652_2       ,,Leonberg,,48.799646,9.003853,,,0,S8003652,2       
8003652_1       ,,Leonberg,,48.799646,9.003853,,,0,S8003652,1       
8003652,,Leonberg,,48.799646,9.003853,,,0,S8003652,
S8003807,,Magstadt,,48.736106,8.965454,,,1,,
8003807_1       ,,Magstadt,,48.736106,8.965454,,,0,S8003807,1       
8003807_2       ,,Magstadt,,48.736106,8.965454,,,0,S8003807,2       
8003807,,Magstadt,,48.736106,8.965454,,,0,S8003807,
S8003808,,Maichingen,,48.722331,8.969921,,,1,,
8003808_1       ,,Maichingen,,48.722331,8.969921,,,0,S8003808,1       
8003808,,Maichingen,,48.722331,8.969921,,,0,S8003808,
S8003831,,Malmsheim,,48.771755,8.904505,,,1,,
8003831_1       ,,Malmsheim,,48.771755,8.904505,,,0,S8003831,1       
8003831_2       ,,Malmsheim,,48.771755,8.904505,,,0,S8003831,2       
8003831,,Malmsheim,,48.771755,8.904505,,,0,S8003831,
S8003834,,Maichingen Nord,,48.727360,8.979257,,,1,,
8003834_1       ,,Maichingen Nord,,48.727360,8.979257,,,0,S8003834,1       
8003834_2       ,,Maichingen Nord,,48.727360,8.979257,,,0,S8003834,2       
8003834,,Maichingen Nord,,48.727360,8.979257,,,0,S8003834,
S8003853,,Marbach(Neckar),,48.943685,9.264452,,,1,,
8003853_1       ,,Marbach(Neckar),,48.943685,9.264452,,,0,S8003853,1       
8003853_2       ,,Marbach(Neckar),,48.943685,9.264452,,,0,S8003853,2       
8003853,,Marbach(Neckar),,48.943685,9.264452,,,0,S8003853,
S8003913,,Maubach,,48.926132,9.419990,,,1,,
8003913_2       ,,Maubach,,48.926132,9.419990,,,0,S8003913,2       
8003913_1       ,,Maubach,,48.926132,9.419990,,,0,S8003913,1       
8003913,,Maubach,,48.926132,9.419990,,,0,S8003913,
S8004233,,Nellmersbach,,48.903368,9.415401,,,1,,
8004233_2       ,,Nellmersbach,,48.903368,9.415401,,,0,S8004233,2       
8004233_1       ,,Nellmersbach,,48.903368,9.415401,,,0,S8004233,1       
8004233,,Nellmersbach,,48.903368,9.415401,,,0,S8004233,
S8004333,,Neustadt-Hohenacker,,48.859312,9.324715,,,1,,
8004333_1       ,,Neustadt-Hohenacker,,48.859312,9.324715,,,0,S8004333,1       
8004333_2       ,,Neustadt-Hohenacker,,48.859312,9.324715,,,0,S8004333,2       
8004333,,Neustadt-Hohenacker,,48.859312,9.324715,,,0,S8004333,
S8004338,,Neuwirtshaus(Porscheplatz),,48.833824,9.152505,,,1,,
8004338_1       ,,Neuwirtshaus(Porscheplatz),,48.833824,9.152505,,,0,S8004338,1       
8004338_2       ,,Neuwirtshaus(Porscheplatz),,48.833824,9.152505,,,0,S8004338,2       
8004338,,Neuwirtshaus(Porscheplatz),,48.833824,9.152505,,,0,S8004338,
S8004357,,Stuttgart Nürnberger Str.,,48.806423,9.234858,,,1,,
8004357_4       ,,Stuttgart Nürnberger Str.,,48.806423,9.234858,,,0,S8004357,4       
8004357_1       ,,Stuttgart Nürnberger Str.,,48.806423,9.234858,,,0,S8004357,1       
8004357,,Stuttgart Nürnberger Str.,,48.806423,9.234858,,,0,S8004357,
S8004490,,Nufringen,,48.620278,8.889796,,,1,,
8004490_2       ,,Nufringen,,48.620278,8.889796,,,0,S8004490,2       
8004490_1       ,,Nufringen,,48.620278,8.889796,,,0,S8004490,1       
8004490,,Nufringen,,48.620278,8.889796,,,0,S8004490,
S8004496,,Oberaichen,,48.705193,9.127335,,,1,,
8004496_2       ,,Oberaichen,,48.705193,9.127335,,,0,S8004496,2       
8004496_1       ,,Oberaichen,,48.705193,9.127335,,,0,S8004496,1       
8004496,,Oberaichen,,48.705193,9.127335,,,0,S8004496,
S8004528,,Oberesslingen,,48.729876,9.327267,,,1,,
8004528_2       ,,Oberesslingen,,48.729876,9.327267,,,0,S8004528,2       
8004528_4       ,,Oberesslingen,,48.729876,9.327267,,,0,S8004528,4       
8004528_3       ,,Oberesslingen,,48.729876,9.327267,,,0,S8004528,3       
8004528,,Oberesslingen,,48.729876,9.327267,,,0,S8004528,
S8005001,,Renningen Süd,,48.762674,8.932027,,,1,,
8005001_1       ,,Renningen Süd,,48.762674,8.932027,,,0,S8005001,1       
8005001_2       ,,Renningen Süd,,48.762674,8.932027,,,0,S8005001,2       
8005001,,Renningen Süd,,48.762674,8.932027,,,0,S8005001,
S8005157,,Rommelshausen,,48.815540,9.319344,,,1,,
8005157_1       ,,Rommelshausen,,48.815540,9.319344,,,0,S8005157,1       
8005157_2       ,,Rommelshausen,,48.815540,9.319344,,,0,S8005157,2       
8005157,,Rommelshausen,,48.815540,9.319344,,,0,S8005157,
S8005201,,Goldberg(Württ),,48.696910,9.020430,,,1,,
8005201_2       ,,Goldberg(Württ),,48.696910,9.020430,,,0,S8005201,2       
8005201_1       ,,Goldberg(Württ),,48.696910,9.020430,,,0,S8005201,1       
8005201,,Goldberg(Württ),,48.696910,9.020430,,,0,S8005201,
S8005236,,Rutesheim,,48.790017,8.959550,,,1,,
8005236_2       ,,Rutesheim,,48.790017,8.959550,,,0,S8005236,2       
8005236_1       ,,Rutesheim,,48.790017,8.959550,,,0,S8005236,1       
8005236,,Rutesheim,,48.790017,8.959550,,,0,S8005236,
S8005424,,Schorndorf,,48.807150,9.526310,,,1,,
8005424_1       ,,Schorndorf,,48.807150,9.526310,,,0,S8005424,1       
8005424_14      ,,Schorndorf,,48.807150,9.526310,,,0,S8005424,14      
8005424,,Schorndorf,,48.807150,9.526310,,,0,S8005424,
S8005454,,Schwaikheim,,48.868340,9.354943,,,1,,
8005454_2       ,,Schwaikheim,,48.868340,9.354943,,,0,S8005454,2       
8005454_1       ,,Schwaikheim,,48.868340,9.354943,,,0,S8005454,1       
8005454,,Schwaikheim,,48.868340,9.354943,,,0,S8005454,
S8005574,,Sindelfingen,,48.703891,8.999075,,,1,,
8005574_1       ,,Sindelfingen,,48.703891,8.999075,,,0,S8005574,1       
8005574,,Sindelfingen,,48.703891,8.999075,,,0,S8005574,
S8005726,,Stetten-Beinstein,,48.811924,9.352450,,,1,,
8005726_1       ,,Stetten-Beinstein,,48.811924,9.352450,,,0,S8005726,1       
8005726_2       ,,Stetten-Beinstein,,48.811924,9.352450,,,0,S8005726,2       
8005726,,Stetten-Beinstein,,48.811924,9.352450,,,0,S8005726,
S8005767,,Stuttgart Nord,,48.803769,9.188026,,,1,,
8005767_3       ,,Stuttgart Nord,,48.803769,9.188026,,,0,S8005767,3       
8005767_4       ,,Stuttgart Nord,,48.803769,9.188026,,,0,S8005767,4       
8005767,,Stuttgart Nord,,48.803769,9.188026,,,0,S8005767,
S8005768,,Stuttgart Flughafen/Messe,,48.690648,9.192630,,,1,,
8005768_2       ,,Stuttgart Flughafen/Messe,,48.690648,9.192630,,,0,S8005768,2       
8005768_1       ,,Stuttgart Flughafen/Messe,,48.690648,9.192630,,,0,S8005768,1       
8005768,,Stuttgart Flughafen/Messe,,48.690648,9.192630,,,0,S8005768,
S8005769,,Stuttgart-Bad Cannstatt,,48.801377,9.217531,,,1,,
8005769_3       ,,Stuttgart-Bad Cannstatt,,48.801377,9.217531,,,0,S8005769,3       
8005769_2       ,,Stuttgart-Bad Cannstatt,,48.801377,9.217531,,,0,S8005769,2       
8005769_1       ,,Stuttgart-Bad Cannstatt,,48.801377,9.217531,,,0,S8005769,1       
8005769_4       ,,Stuttgart-Bad Cannstatt,,48.801377,9.217531,,,0,S8005769,4       
8005769,,Stuttgart-Bad Cannstatt,,48.801377,9.217531,,,0,S8005769,
S8005770,,Stuttgart-Feuerbach,,48.813673,9.169382,,,1,,
8005770_2       ,,Stuttgart-Feuerbach,,48.813673,9.169382,,,0,S8005770,2       
8005770_3       ,,Stuttgart-Feuerbach,,48.813673,9.169382,,,0,S8005770,3       
8005770_1       ,,Stuttgart-Feuerbach,,48.813673,9.169382,,,0,S8005770,1       
8005770,,Stuttgart-Feuerbach,,48.813673,9.169382,,,0,S8005770,
S8005772,,Stuttgart-Obertürkheim,,48.762013,9.267889,,,1,,
8005772_6       ,,Stuttgart-Obertürkheim,,48.762013,9.267889,,,0,S8005772,6       
8005772_5       ,,Stuttgart-Obertürkheim,,48.762013,9.267889,,,0,S8005772,5       
8005772,,Stuttgart-Obertürkheim,,48.762013,9.267889,,,0,S8005772,
S8005773,,Stuttgart-Rohr,,48.717902,9.108328,,,1,,
8005773_3       ,,Stuttgart-Rohr,,48.717902,9.108328,,,0,S8005773,3       
8005773_2       ,,Stuttgart-Rohr,,48.717902,9.108328,,,0,S8005773,2       
8005773,,Stuttgart-Rohr,,48.717902,9.108328,,,0,S8005773,
S8005774,,Stuttgart-Sommerrain,,48.815270,9.248327,,,1,,
8005774_4       ,,Stuttgart-Sommerrain,,48.815270,9.248327,,,0,S8005774,4       
8005774_1       ,,Stuttgart-Sommerrain,,48.815270,9.248327,,,0,S8005774,1       
8005774,,Stuttgart-Sommerrain,,48.815270,9.248327,,,0,S8005774,
S8005775,,Stuttgart-Untertürkheim,,48.779751,9.250569,,,1,,
8005775_6       ,,Stuttgart-Untertürkheim,,48.779751,9.250569,,,0,S8005775,6       
8005775_5       ,,Stuttgart-Untertürkheim,,48.779751,9.250569,,,0,S8005775,5       
8005775,,Stuttgart-Untertürkheim,,48.779751,9.250569,,,0,S8005775,
S8005776,,Stuttgart-Vaihingen,,48.726279,9.113226,,,1,,
8005776_3       ,,Stuttgart-Vaihingen,,48.726279,9.113226,,,0,S8005776,3       
8005776_2       ,,Stuttgart-Vaihingen,,48.726279,9.113226,,,0,S8005776,2       
8005776_1       ,,Stuttgart-Vaihingen,,48.726279,9.113226,,,0,S8005776,1       
8005776,,Stuttgart-Vaihingen,,48.726279,9.113226,,,0,S8005776,
S8005778,,Stuttgart-Zuffenhausen,,48.829415,9.166739,,,1,,
8005778_4       ,,Stuttgart-Zuffenhausen,,48.829415,9.166739,,,0,S8005778,4       
8005778_2       ,,Stuttgart-Zuffenhausen,,48.829415,9.166739,,,0,S8005778,2       
8005778_11      ,,Stuttgart-Zuffenhausen,,48.829415,9.166739,,,0,S8005778,11      
8005778_12      ,,Stuttgart-Zuffenhausen,,48.829415,9.166739,,,0,S8005778,12      
8005778_6       ,,Stuttgart-Zuffenhausen,,48.829415,9.166739,,,0,S8005778,6       
8005778_5       ,,Stuttgart-Zuffenhausen,,48.829415,9.166739,,,0,S8005778,5       
8005778,,Stuttgart-Zuffenhausen,,48.829415,9.166739,,,0,S8005778,
S8005779,,Stuttgart-Österfeld,,48.737651,9.116774,,,1,,
8005779_2       ,,Stuttgart-Österfeld,,48.737651,9.116774,,,0,S8005779,2       
8005779_1       ,,Stuttgart-Österfeld,,48.737651,9.116774,,,0,S8005779,1       
8005779,,Stuttgart-Österfeld,,48.737651,9.116774,,,0,S8005779,
S8005820,,Tamm(Württ),,48.921605,9.125828,,,1,,
8005820_3       ,,Tamm(Württ),,48.921605,9.125828,,,0,S8005820,3       
8005820_2       ,,Tamm(Württ),,48.921605,9.125828,,,0,S8005820,2       
8005820,,Tamm(Württ),,48.921605,9.125828,,,0,S8005820,
S8006268,,Weilimdorf,,48.822080,9.094328,,,1,,
8006268_1       ,,Weilimdorf,,48.822080,9.094328,,,0,S8006268,1       
8006268_2       ,,Weilimdorf,,48.822080,9.094328,,,0,S8006268,2       
8006268,,Weilimdorf,,48.822080,9.094328,,,0,S8006268,
S8006271,,Weil der Stadt,,48.755483,8.872806,,,1,,
8006271_1       ,,Weil der Stadt,,48.755483,8.872806,,,0,S8006271,1       
8006271_2       ,,Weil der Stadt,,48.755483,8.872806,,,0,S8006271,2       
8006271,,Weil der Stadt,,48.755483,8.872806,,,0,S8006271,
S8006277,,Weiler(Rems),,48.800301,9.501991,,,1,,
8006277_1       ,,Weiler(Rems),,48.800301,9.501991,,,0,S8006277,1       
8006277_2       ,,Weiler(Rems),,48.800301,9.501991,,,0,S8006277,2       
8006277,,Weiler(Rems),,48.800301,9.501991,,,0,S8006277,
S8006331,,Wendlingen(Neckar),,48.672961,9.373011,,,1,,
8006331_11      ,,Wendlingen(Neckar),,48.672961,9.373011,,,0,S8006331,11      
8006331_12      ,,Wendlingen(Neckar),,48.672961,9.373011,,,0,S8006331,12      
8006331_1       ,,Wendlingen(Neckar),,48.672961,9.373011,,,0,S8006331,1       
8006331_3       ,,Wendlingen(Neckar),,48.672961,9.373011,,,0,S8006331,3       
8006331,,Wendlingen(Neckar),,48.672961,9.373011,,,0,S8006331,
S8006346,,Wernau(Neckar),,48.694247,9.413898,,,1,,
8006346_2       ,,Wernau(Neckar),,48.694247,9.413898,,,0,S8006346,2       
8006346_1       ,,Wernau(Neckar),,48.694247,9.413898,,,0,S8006346,1       
8006346,,Wernau(Neckar),,48.694247,9.413898,,,0,S8006346,
S8006479,,Winnenden,,48.879583,9.392290,,,1,,
8006479_2       ,,Winnenden,,48.879583,9.392290,,,0,S8006479,2       
8006479_3       ,,Winnenden,,48.879583,9.392290,,,0,S8006479,3       
8006479,,Winnenden,,48.879583,9.392290,,,0,S8006479,
S8006485,,Winterbach(b Schorndorf),,48.798432,9.480994,,,1,,
8006485_2       ,,Winterbach(b Schorndorf),,48.798432,9.480994,,,0,S8006485,2       
8006485_1       ,,Winterbach(b Schorndorf),,48.798432,9.480994,,,0,S8006485,1       
8006485,,Winterbach(b Schorndorf),,48.798432,9.480994,,,0,S8006485,
S8006513,,Stuttgart Universität,,48.745837,9.105398,,,1,,
8006513_2       ,,Stuttgart Universität,,48.745837,9.105398,,,0,S8006513,2       
8006513_1       ,,Stuttgart Universität,,48.745837,9.105398,,,0,S8006513,1       
8006513,,Stuttgart Universität,,48.745837,9.105398,,,0,S8006513,
S8006642,,Esslingen-Zell,,48.724328,9.359389,,,1,,
8006642_2       ,,Esslingen-Zell,,48.724328,9.359389,,,0,S8006642,2       
8006642_4       ,,Esslingen-Zell,,48.724328,9.359389,,,0,S8006642,4       
8006642_3       ,,Esslingen-Zell,,48.724328,9.359389,,,0,S8006642,3       
8006642,,Esslingen-Zell,,48.724328,9.359389,,,0,S8006642,
S8006698,,Stuttgart Schwabstr.,,48.770255,9.156959,,,1,,
8006698_2       ,,Stuttgart Schwabstr.,,48.770255,9.156959,,,0,S8006698,2       
8006698_1       ,,Stuttgart Schwabstr.,,48.770255,9.156959,,,0,S8006698,1       
8006698,,Stuttgart Schwabstr.,,48.770255,9.156959,,,0,S8006698,
S8006699,,Stuttgart Feuersee,,48.772768,9.166273,,,1,,
8006699_2       ,,Stuttgart Feuersee,,48.772768,9.166273,,,0,S8006699,2       
8006699_1       ,,Stuttgart Feuersee,,48.772768,9.166273,,,0,S8006699,1       
8006699,,Stuttgart Feuersee,,48.772768,9.166273,,,0,S8006699,
S8006700,,Stuttgart Stadtmitte,,48.776229,9.172925,,,1,,
8006700_2       ,,Stuttgart Stadtmitte,,48.776229,9.172925,,,0,S8006700,2       
8006700_1       ,,Stuttgart Stadtmitte,,48.776229,9.172925,,,0,S8006700,1       
8006700,,Stuttgart Stadtmitte,,48.776229,9.172925,,,0,S8006700,
S8006743,,Stuttgart Neckarpark,,48.792173,9.241595,,,1,,
8006743_2       ,,Stuttgart Neckarpark,,48.792173,9.241595,,,0,S8006743,2       
8006743_1       ,,Stuttgart Neckarpark,,48.792173,9.241595,,,0,S8006743,1       
8006743_3       ,,Stuttgart Neckarpark,,48.792173,9.241595,,,0,S8006743,3       
8006743,,Stuttgart Neckarpark,,48.792173,9.241595,,,0,S8006743,
S8098096,,Stuttgart Hbf (tief),,48.782999,9.179808,,,1,,
8098096_102     ,,Stuttgart Hbf (tief),,48.782999,9.179808,,,0,S8098096,102     
8098096_101     ,,Stuttgart Hbf (tief),,48.782999,9.179808,,,0,S8098096,101     
8098096,,Stuttgart Hbf (tief),,48.782999,9.179808,,,0,S8098096,
